{"business_id": "rncjoVoEFUJGCUoC1JgnUA", "full_address": "8466 W Peoria Ave\nSte 6\nPeoria, AZ 85345", "open": true, "categories": ["Accountants", "Professional Services", "Tax Services", "Financial Services"], "city": "Peoria", "review_count": 3, "name": "Peoria Income Tax Service", "neighborhoods": [], "longitude": -112.241596, "state": "AZ", "stars": 5.0, "latitude": 33.581867000000003, "type": "business"}
{"business_id": "0FNFSzCFP_rGUoJx8W7tJg", "full_address": "2149 W Wood Dr\nPhoenix, AZ 85029", "open": true, "categories": ["Sporting Goods", "Bikes", "Shopping"], "city": "Phoenix", "review_count": 5, "name": "Bike Doctor", "neighborhoods": [], "longitude": -112.10593299999999, "state": "AZ", "stars": 5.0, "latitude": 33.604053999999998, "type": "business"}
{"business_id": "3f_lyB6vFK48ukH6ScvLHg", "full_address": "1134 N Central Ave\nPhoenix, AZ 85004", "open": true, "categories": [], "city": "Phoenix", "review_count": 4, "name": "Valley Permaculture Alliance", "neighborhoods": [], "longitude": -112.07393329999999, "state": "AZ", "stars": 5.0, "latitude": 33.460525799999999, "type": "business"}
{"business_id": "usAsSV36QmUej8--yvN-dg", "full_address": "845 W Southern Ave\nPhoenix, AZ 85041", "open": true, "categories": ["Food", "Grocery"], "city": "Phoenix", "review_count": 5, "name": "Food City", "neighborhoods": [], "longitude": -112.0853773, "state": "AZ", "stars": 3.5, "latitude": 33.392209899999997, "type": "business"}
{"business_id": "PzOqRohWw7F7YEPBz6AubA", "full_address": "6520 W Happy Valley Rd\nSte 101\nGlendale Az, AZ 85310", "open": true, "categories": ["Food", "Bagels", "Delis", "Restaurants"], "city": "Glendale Az", "review_count": 14, "name": "Hot Bagels & Deli", "neighborhoods": [], "longitude": -112.200264, "state": "AZ", "stars": 3.5, "latitude": 33.712797000000002, "type": "business"}
{"business_id": "gtQzAiy7D-dPU8WzT3jX3Q", "full_address": "The Americana at Brand\n869 Americana Way\nGlendale, CA 91210", "open": true, "categories": ["Women's Clothing", "Fashion", "Shopping"], "city": "Glendale", "review_count": 6, "name": "Barney's New York Co-op", "neighborhoods": [], "longitude": -112.481632232666, "state": "CA", "stars": 4.5, "latitude": 33.6077660588006, "type": "business"}
{"business_id": "FrBCYtCS_jydDjg1KsIgWQ", "full_address": "1850 W Camelback Rd\nSte 1\nPhoenix, AZ 85015", "open": true, "categories": ["Music & DVDs", "Books, Mags, Music & Video", "Vinyl Records", "Shopping"], "city": "Phoenix", "review_count": 21, "name": "Zia Record Exchange", "neighborhoods": [], "longitude": -112.0987501, "state": "AZ", "stars": 3.5, "latitude": 33.509658199999997, "type": "business"}
{"business_id": "yaXAD-Mv2K2PEZobmqjIYA", "full_address": "3415 W Northern Ave\nPhoenix, AZ 85051", "open": true, "categories": ["Event Planning & Services", "Venues & Event Spaces"], "city": "Phoenix", "review_count": 4, "name": "Reflections Bingo", "neighborhoods": [], "longitude": -112.13286600000001, "state": "AZ", "stars": 5.0, "latitude": 33.551903000000003, "type": "business"}
{"business_id": "o3ehs4ZEdsizbJyB9_j7uQ", "full_address": "6938 E 1st St\nScottsdale, AZ 85251", "open": true, "categories": ["Art Schools", "Specialty Schools", "Shopping", "Jewelry", "Accessories", "Fashion", "Education"], "city": "Scottsdale", "review_count": 14, "name": "Jam", "neighborhoods": [], "longitude": -111.9312992, "state": "AZ", "stars": 5.0, "latitude": 33.492195000000002, "type": "business"}
{"business_id": "qarobAbxGSHI7ygf1f7a_Q", "full_address": "891 E Baseline Rd\nSuite 102\nGilbert, AZ 85233", "open": true, "categories": ["Sandwiches", "Restaurants"], "city": "Gilbert", "review_count": 10, "name": "Jersey Mike's Subs", "neighborhoods": [], "longitude": -111.8120071, "state": "AZ", "stars": 3.5, "latitude": 33.378838500000001, "type": "business"}
{"business_id": "C1xciP65n4t4R1Q4h1zOHw", "full_address": "8860 E Chaparral Rd\nSte 100\nScottsdale, AZ 85250", "open": true, "categories": ["Music & DVDs", "Books, Mags, Music & Video", "Musical Instruments & Teachers", "Shopping"], "city": "Scottsdale", "review_count": 4, "name": "Fender Musical Instruments Corporation", "neighborhoods": [], "longitude": -111.88878889999999, "state": "AZ", "stars": 4.5, "latitude": 33.5135194, "type": "business"}
{"business_id": "gA5CuBxF-0CnOpGnryWJdQ", "full_address": "519 W Thomas Rd\nPhoenix, AZ 85013", "open": true, "categories": ["Mexican", "Restaurants"], "city": "Phoenix", "review_count": 5, "name": "La Paloma Mexican Food", "neighborhoods": [], "longitude": -112.0813612, "state": "AZ", "stars": 4.0, "latitude": 33.480105000000002, "type": "business"}
{"business_id": "acaBJcFEKPmmSDIO6c-ZGQ", "full_address": "2075 N Pebble Creek Pkwy\nGoodyear, AZ 85395", "open": true, "categories": ["Food", "Grocery"], "city": "Goodyear", "review_count": 3, "name": "Basha's", "neighborhoods": [], "longitude": -112.39202179999999, "state": "AZ", "stars": 3.0, "latitude": 33.468814999999999, "type": "business"}
{"business_id": "JxVGJ9Nly2FFIs_WpJvkug", "full_address": "14418 N Scottsdale Rd\nSuite 181\nScottsdale, AZ 85254", "open": true, "categories": ["Pizza", "Restaurants"], "city": "Scottsdale", "review_count": 55, "name": "Sauce", "neighborhoods": [], "longitude": -111.926272, "state": "AZ", "stars": 4.0, "latitude": 33.617458900000003, "type": "business"}
{"business_id": "9iLiMm3Z9nepRDu1AhgEoQ", "full_address": "3535 W Chandler Blvd\nChandler, AZ 85226", "open": true, "categories": ["Hotels & Travel", "Event Planning & Services", "Hotels"], "city": "Chandler", "review_count": 7, "name": "Windmill Inns & Suites", "neighborhoods": [], "longitude": -111.9032256, "state": "AZ", "stars": 4.5, "latitude": 33.305426599999997, "type": "business"}
{"business_id": "G2Re2E5Jkv_UF1xrenSsDg", "full_address": "4500 E Cactus Rd\nPhoenix, AZ 85032", "open": true, "categories": ["Department Stores", "Fashion", "Shopping"], "city": "Phoenix", "review_count": 11, "name": "Macy's", "neighborhoods": [], "longitude": -111.9820907, "state": "AZ", "stars": 4.0, "latitude": 33.599323599999998, "type": "business"}
{"business_id": "8lTdJA9GK59-NzJwleSJBQ", "full_address": "7501 S McAllister Ave\nTempe, AZ 85283", "open": true, "categories": ["Window Washing", "Home Services"], "city": "Tempe", "review_count": 12, "name": "Clearly Professional Window Cleaning", "neighborhoods": [], "longitude": -111.931256, "state": "AZ", "stars": 5.0, "latitude": 33.350299999999997, "type": "business"}
{"business_id": "Jj7bcQ6NDfKoz4TXwvYfMg", "full_address": "8941 N Black Canyon Hwy\nPhoenix, AZ 85021", "open": true, "categories": ["Burgers", "Restaurants"], "city": "Phoenix", "review_count": 23, "name": "Fuddruckers", "neighborhoods": [], "longitude": -112.116243, "state": "AZ", "stars": 4.0, "latitude": 33.566989, "type": "business"}
{"business_id": "OMXAkiWyKz0AM6PwwuP38Q", "full_address": "7131 W Ray Rd\nSuite 14\nChandler, AZ 85226", "open": true, "categories": ["Kitchen & Bath", "Shopping", "Home & Garden"], "city": "Chandler", "review_count": 15, "name": "Sur La Table", "neighborhoods": [], "longitude": -111.96413800000001, "state": "AZ", "stars": 4.0, "latitude": 33.317906000000001, "type": "business"}
{"business_id": "K0v87iFgB3sXSzw6e-BJ5w", "full_address": "100 Easy St\nCarefree, AZ 85377", "open": true, "categories": ["Food", "Beer, Wine & Spirits"], "city": "Carefree", "review_count": 8, "name": "AZ Wine Company", "neighborhoods": [], "longitude": -111.9229042, "state": "AZ", "stars": 4.5, "latitude": 33.824230499999999, "type": "business"}
{"business_id": "jcQgDviuCuJLJWjYoTy9MA", "full_address": "Mesa, AZ 85215", "open": true, "categories": ["Plumbing", "Home Services"], "city": "Mesa", "review_count": 4, "name": "Rocket Rooter Plumbing and Drain Service", "neighborhoods": [], "longitude": -111.54683009999999, "state": "AZ", "stars": 5.0, "latitude": 33.519545000000001, "type": "business"}
{"business_id": "QL3vFMAsEHqfi1KGH-4igg", "full_address": "Mondrian Hotel Scottsdale\n7353 E Indian School Rd\nScottsdale, AZ 85251", "open": false, "categories": ["Bars", "Nightlife", "Lounges"], "city": "Scottsdale", "review_count": 11, "name": "Red Bar", "neighborhoods": [], "longitude": -111.924226, "state": "AZ", "stars": 3.0, "latitude": 33.49447, "type": "business"}
{"business_id": "yOYFhiTjT-SM4spKtDk92w", "full_address": "10227 N Metro Pkwy E\nPhoenix, AZ 85051", "open": false, "categories": ["Buffets", "Dim Sum", "Chinese", "Restaurants"], "city": "Phoenix", "review_count": 42, "name": "China Chan Restaurant", "neighborhoods": [], "longitude": -112.12051599999999, "state": "AZ", "stars": 3.5, "latitude": 33.5803589, "type": "business"}
{"business_id": "4IAzFJ159GEaIGX1-y6Bmw", "full_address": "9251 E Shea Blvd\nScottsdale, AZ 85258", "open": true, "categories": ["Burgers", "Fast Food", "Restaurants"], "city": "Scottsdale", "review_count": 3, "name": "McDonald's", "neighborhoods": [], "longitude": -111.881625, "state": "AZ", "stars": 2.5, "latitude": 33.581867000000003, "type": "business"}
{"business_id": "s02x9kPbZii-uw1x0Oyy6w", "full_address": "32351 N Scottsdale Rd\nScottsdale, AZ 85262", "open": true, "categories": ["Department Stores", "Fashion", "Shopping", "Drugstores"], "city": "Scottsdale", "review_count": 5, "name": "Target Stores", "neighborhoods": [], "longitude": -111.9257696, "state": "AZ", "stars": 3.5, "latitude": 33.780117599999997, "type": "business"}
{"business_id": "e9JhcYEgNbRL8i8CTdQO2w", "full_address": "15205 N Kierland Blvd\nSte 150\nScottsdale, AZ 85254", "open": true, "categories": ["Shopping Centers", "Shopping"], "city": "Scottsdale", "review_count": 54, "name": "Kierland Commons", "neighborhoods": [], "longitude": -111.93034299999999, "state": "AZ", "stars": 4.5, "latitude": 33.624637999999997, "type": "business"}
{"business_id": "MLAnvEcvDfOWELHUN_0xEw", "full_address": "7001 N Scottsdale Rd\nSte 147\nScottsdale, AZ 85253", "open": false, "categories": ["Food", "Breweries", "American (New)", "Restaurants"], "city": "Scottsdale", "review_count": 85, "name": "Nimbus American Bistro N' Brewery", "neighborhoods": [], "longitude": -111.9641728, "state": "AZ", "stars": 3.0, "latitude": 33.538847099999998, "type": "business"}
{"business_id": "BtKwRZRMyTIi9BRFk-75sQ", "full_address": "W Union Hills Dr\nGlendale, AZ 85308", "open": true, "categories": ["Active Life", "Dog Parks", "Amateur Sports Teams", "Parks"], "city": "Glendale", "review_count": 15, "name": "Foothills Park", "neighborhoods": [], "longitude": -112.179572582245, "state": "AZ", "stars": 4.0, "latitude": 33.657084673841503, "type": "business"}
{"business_id": "MwIM3O0p8V_y2ttXz0_xGw", "full_address": "3592 S Atherton Blvd\nSte 107\nGilbert, AZ 85297", "open": true, "categories": ["Pediatric Dentists", "Health & Medical", "Dentists"], "city": "Gilbert", "review_count": 5, "name": "Little Tykes Pediatric Dentistry", "neighborhoods": [], "longitude": -111.71702999999999, "state": "AZ", "stars": 3.5, "latitude": 33.285218, "type": "business"}
{"business_id": "JHp5mJvYe6UtM_QsklR-iw", "full_address": "7607 E McDowell Road\nSuite 101\nScottsdale, AZ 85257", "open": true, "categories": ["Pizza", "Restaurants"], "city": "Scottsdale", "review_count": 9, "name": "Peter Piper Pizza", "neighborhoods": [], "longitude": -111.9175425, "state": "AZ", "stars": 3.0, "latitude": 33.4661264, "type": "business"}
{"business_id": "O0ayL4r9AbonKwdgelBL3A", "full_address": "524 W Broadway Rd\nSte 107\nTempe, AZ 85282", "open": true, "categories": ["Active Life", "Performing Arts", "Arts & Entertainment", "Dance Studios", "Fitness & Instruction"], "city": "Tempe", "review_count": 5, "name": "Plaza de Anaya", "neighborhoods": [], "longitude": -111.9470154, "state": "AZ", "stars": 5.0, "latitude": 33.407611799999998, "type": "business"}
{"business_id": "sygb2W4NRadVXiWhW8bnFQ", "full_address": "616 E Pima Street\nGila Bend, AZ 85337", "open": true, "categories": ["Mexican", "Restaurants"], "city": "Gila Bend", "review_count": 10, "name": "Sofia's Mexican Food", "neighborhoods": [], "longitude": -112.7113217, "state": "AZ", "stars": 3.5, "latitude": 32.948294799999999, "type": "business"}
{"business_id": "ECuS72VSRKpRRFToQiNQxA", "full_address": "4532 N 7th St\n#B\nPhoenix, AZ 85014", "open": false, "categories": ["Thrift Stores", "Used, Vintage & Consignment", "Fashion", "Shopping"], "city": "Phoenix", "review_count": 4, "name": "Nostalgic Alley", "neighborhoods": [], "longitude": -112.065449, "state": "AZ", "stars": 5.0, "latitude": 33.503222999999998, "type": "business"}
{"business_id": "JvJjaTJCyUGu5SDpoJWvZg", "full_address": "1930 W Pinnacle Peak Rd\nSte 119\nPhoenix, AZ 85027", "open": false, "categories": ["Caterers", "Restaurants", "Event Planning & Services", "Italian"], "city": "Phoenix", "review_count": 9, "name": "Meatballz", "neighborhoods": [], "longitude": -112.10131199999999, "state": "AZ", "stars": 3.0, "latitude": 33.698842900000002, "type": "business"}
{"business_id": "u9b49Z4JmvbP6KTe26lyoA", "full_address": "4515 E Cactus Rd\nPhoenix, AZ 85032", "open": true, "categories": ["Hair Salons", "Beauty & Spas"], "city": "Phoenix", "review_count": 5, "name": "Cool Cuts 4 Kids", "neighborhoods": [], "longitude": -111.9820732, "state": "AZ", "stars": 4.0, "latitude": 33.599142399999998, "type": "business"}
{"business_id": "j1Ql05L7wn_8GGLj3jHkWg", "full_address": "4032 N Miller Road\nScottsdale, AZ 85251", "open": true, "categories": [], "city": "Scottsdale", "review_count": 3, "name": "Ford Robert Black Agency", "neighborhoods": [], "longitude": -111.9174842, "state": "AZ", "stars": 5.0, "latitude": 33.493999500000001, "type": "business"}
{"business_id": "507GX11jtCsVYlzaur05_w", "full_address": "4730 E Warner Rd\nPhoenix, AZ 85044", "open": true, "categories": ["Chinese", "Restaurants"], "city": "Phoenix", "review_count": 27, "name": "Panda Garden", "neighborhoods": [], "longitude": -111.983142, "state": "AZ", "stars": 4.0, "latitude": 33.333182000000001, "type": "business"}
{"business_id": "3ic0B872Tql7dwO4YRTDCw", "full_address": "2480 W Happy Valley Rd.\nSuite 1215\nPhoenix, AZ 85085", "open": true, "categories": ["Fashion", "Shopping", "Jewelry", "Accessories"], "city": "Phoenix", "review_count": 15, "name": "Charming Charlie", "neighborhoods": [], "longitude": -112.1114135, "state": "AZ", "stars": 4.5, "latitude": 33.712965699999998, "type": "business"}
{"business_id": "0EE3BohGb4lxWRnHLiqNnw", "full_address": "124th St & Via Linda\nScottsdale, AZ 85255", "open": true, "categories": ["Active Life", "Hiking"], "city": "Scottsdale", "review_count": 17, "name": "Lost Dog Wash Trail", "neighborhoods": [], "longitude": -111.8134299, "state": "AZ", "stars": 4.5, "latitude": 33.589622499999997, "type": "business"}
